"","zip","Name","Location","YearRound","Handicap","Borough","Lat","Lon","population"
"1","10001","Chelsea Park","West 27 Street & 9 Avenue","Yes","No","Manhattan",40.7501252,-74.0012230555722,21102
"2","10001","Chelsea Recreation Center","South of West 25 Street, 9 to 10 avenues","Yes","Yes","Manhattan",40.74838,-74.002,21102
"3","10002","Hamilton Fish Park (Recreation Center)","Between East Houston & Stanton streets","Yes","Yes","Manhattan",40.7197972,-73.9808361521585,81410
"4","10002","Sara D. Roosevelt Park","East Houston Street to Canal Street","Yes","Yes","Manhattan",40.7223972,-73.9916358,81410
"5","10002","Coleman Square Playground","Between Cherry & Monroe streets","Yes","No","Manhattan",40.7111111,-73.993611,81410
"6","10002","East River Park (10th Street)","Northern extreme of park","Yes","No","Manhattan",40.718547,-73.9741378403236,81410
"7","10002","East River Park (Track Building)","East 6 Street & FDR Drive","Yes","No","Manhattan",40.718547,-73.9741378403236,81410
"8","10002","Little Flower Playground","Madison Street opposite Jefferson Street","No","Yes","Manhattan",40.7122222,-73.9883332,81410
"9","10009","Dry Dock Playground","East 10 Street & Szold Place, Avenue D","No","No","Manhattan",40.7255556,-73.9755555,61347
"10","10009","McKinley Playground","Avenue A, East 3-East 4 streets","No","No","Manhattan",40.7242535,-73.9857810380966,61347
"11","10010","Augustus St. Gaudens","East 19 to East 20 streets, 2 Avenue","Yes","No","Manhattan",40.7356292,-73.9823601,31834
"12","10010","Asser Levy","Asser Levy Place & East 24-25 streets","Yes","No","Manhattan",40.7365603,-73.9757719,31834
"13","10012","Vesuvio Playground","Spring & Thompson streets","Yes","Yes","Manhattan",40.72522185,-74.002597804206,24090
"14","10013","Rolf Henry Playground","New York & Clarkson avenues","Yes","No","Brooklyn",40.7127837,-74.0059413,27700
"15","10013","Lincoln Terrace Park (Arthur S. Somers Playground)","East New York, Rochester avenues, Eastern Parkway,Buffalo Avenue","Yes","No","Brooklyn",40.7127837,-74.0059413,27700
"16","10016","St. Vartan Park","East 35-East 36 streets, between 1 & 2 avenues","Yes","Yes","Manhattan",40.74514395,-73.9736882551076,54183
"17","10017","Robert Moses Playground","1 Avenue, East 41 to East 42 streets","Yes","No","Manhattan",40.7483333,-73.9697221,16575
"18","10018","Whitestone Playground (PS 193)","12 Avenue & 153 Street","Yes","No","Queens",40.7607442,-74.002077,5229
"19","10021","St. Catherine's Park","East 67-68 streets, 1 Avenue","Yes","No","Manhattan",40.764625,-73.9583262,43631
"20","10021","Carl Schurz Park","East 84 Street & East End Avenue","Yes","Yes","Manhattan",40.7753294,-73.943459342501,43631
"21","10023","Central Park (West 61st)","West Drive, Central Park West, & 65th Street Transverse","No","No","Manhattan",40.7692746,-73.9810291,60998
"22","10024","Sol Bloom Playground","Columbus Avenue, West 91 to West 92 streets, Central Park West","Yes","No","Manhattan",40.7828647,-73.9653551,59283
"23","10024","Central Park Delacorte Comfort Station","Mid-Park at 80th Street","Yes","Yes","Manhattan",40.7830603,-73.9712488,59283
"24","10024","John Jay Park & Pool","East 76-East 78 streets & Cherokee Place","Yes","No","Manhattan",40.7830603,-73.9712488,59283
"25","10024","Highbridge Park-Wallenberg Playground","W 189 St & Amsterdam Ave","No","Yes","Manhattan",40.7830603,-73.9712488,59283
"26","10024","Central Park (Tavern on The Green)","Central Park","No","No","Manhattan",40.7828647,-73.9653551,59283
"27","10024","Frederick Johnson Park","7 Avenue, West 150-151 streets","Yes","No","Manhattan",40.7830603,-73.9712488,59283
"28","10024","General Douglas MacArthur Park","East 49 Street & East River Drive","Yes","No","Manhattan",40.7830603,-73.9712488,59283
"29","10024","Playground Ninety Six (XCVI)","2 Avenue, East 96 to East 97 streets","Yes","No","Manhattan",40.7830603,-73.9712488,59283
"30","10024","Msgnr. Kett","West 204 Street & Nagle Avenue","Yes","No","Manhattan",40.7830603,-73.9712488,59283
"31","10024","Central Park (Ramble)","Central Park","No","No","Manhattan",40.7828647,-73.9653551,59283
"32","10025","Riverside Park (Neufeld Playground)","West 76 Street & Riverside Drive","Yes","No","Manhattan",40.80663435,-73.9687489626192,94600
"33","10025","Riverside Park (Hippo Playground)","West 91 Street & Riverside Drive","Yes","No","Manhattan",40.80663435,-73.9687489626192,94600
"34","10025","Central Park (Lasker)","Central Park at 107th Street","Yes","Yes","Manhattan",40.7987267,-73.9595458,94600
"35","10025","Riverside Park (River Run Playground)","West 83 Street & Riverside Drive","Yes","No","Manhattan",40.80663435,-73.9687489626192,94600
"36","10025","Riverside Park (Riverbank Playground)","West 142 Street & Riverside Drive","Yes","No","Manhattan",40.80663435,-73.9687489626192,94600
"37","10025","Riverside Park (Dinosaur Playground)","West 97 Street & Riverside Drive","Yes","No","Manhattan",40.80663435,-73.9687489626192,94600
"38","10025","Bloomingdale Playground","Amsterdam Avenue, West 104 & West 105 streets","Yes","No","Manhattan",40.7987854,-73.9658493,94600
"39","10025","Happy Warrior Playground","West 98 Street & Amsterdam Avenue","Yes","No","Manhattan",40.7952778,-73.968611,94600
"40","10025","Riverside Park (Ten Mile River Playground)","West 148 Street & Hudson River","No","No","Manhattan",40.80663435,-73.9687489626192,94600
"41","10025","Riverside Park (Claremont)","West 124 Street & Riverside Drive","Yes","No","Manhattan",40.80663435,-73.9687489626192,94600
"42","10026","Central Park (The Great Hill)","West Side from 103rd to 107th streets","No","No","Manhattan",40.79686915,-73.9589231124157,34003
"43","10027","Morningside Park","West 123 Street & Morningside Avenue","Yes","Yes","Manhattan",40.80593305,-73.9587637898096,59707
"44","10027","Marcus Garvey Park (Pool)","Madison Avenue, East 120 to East 124 streets","No","No","Manhattan",40.80521955,-73.9433496,59707
"45","10027","Smokey Oval","125 Street & Atlantic Avenue","Yes","No","Queens",40.8107835,-73.9525929,59707
"46","10027","Morningside Playground","West 117 Street & Morningside Avenue","Yes","No","Manhattan",40.8105122,-73.9553236,59707
"47","10027","Sheltering Arms Park","West 129 Street, Amsterdam Avenue","Yes","No","Manhattan",40.815,-73.9555555,59707
"48","10027","Marcus Garvey Park (Pelham Fritz Recreation Center)","18 Mount Morris Park West","Yes","No","Manhattan",40.8050093,-73.9448633,59707
"49","10027","Sheltering Arms Park (Pool)","West 129 Street, Amsterdam Avenue","No","No","Manhattan",40.815,-73.9555555,59707
"50","10028","Central Park (The Metropolitan Museum of Art)","Fifth Avenue at 82nd Street","Yes","No","Manhattan",40.7789422,-73.9623032,45141
"51","10029","Poor Richard's Playground","East 109 Street between 2 & 3 avenues","Yes","No","Manhattan",40.7924667,-73.9428112334836,76003
"52","10029","Bendheim Playground","100th Street and Fifth Ave","No","Yes","Manhattan",40.7902744,-73.9544034800503,76003
"53","10029","Playground 70","West End Avenue & West 70 Street","Yes","Yes","Manhattan",40.78911455,-73.9439835,76003
"54","10029","Cherry Tree (Washington) Playground","99 to 100 streets, 3 Avenue","Yes","No","Manhattan",40.7872666,-73.9472102,76003
"55","10030","St. Nicholas Park","West 129 Street & St. Nicholas Terrace","Yes","No","Manhattan",40.81719125,-73.9490350316411,26999
"56","10030","St Nicholas Park South","West 129 & 7 Avenue","Yes","No","Manhattan",40.8179177,-73.9495365,26999
"57","10030","Frederick E. Samuel Playground","Lenox Avenue, West 139 to West 140 streets","Yes","No","Manhattan",40.817202,-73.9391049,26999
"58","10030","St. Nicholas Park (Arlington Edinboro Playground)","West 140 Street & St. Nicholas Avenue","Yes","No","Manhattan",40.81719125,-73.9490350316411,26999
"59","10030","Renaissance Playground","West 144 Street, between 7 & 8 avenues","Yes","No","Manhattan",40.82131365,-73.9417237645174,26999
"60","10030","St. Nicholas Park","West 133 Street & St. Nicholas Avenue","Yes","No","Manhattan",40.81719125,-73.9490350316411,26999
"61","10031","Jacob Schiff Playground (PS 192)","Amsterdam Avenue, West 136 Street","Yes","No","Manhattan",40.8205093,-73.95199975,56438
"62","10031","Carmansville Playground","Amsterdam Avenue, West 151 to West 152 streets","Yes","No","Manhattan",40.82918625,-73.9442601664538,56438
"63","10031","Alexander Hamilton Playground","Hamilton Place, West 140 to West 141 streets","Yes","No","Manhattan",40.82303475,-73.9512896628916,56438
"64","10032","Audubon Playground","West 170 Street & Audubon Avenue","Yes","No","Manhattan",40.8415543,-73.9377004,57331
"65","10032","J. Hood Wright Park","Ft. Washington & Haven avenues, West 173 Street","Yes","Yes","Manhattan",40.84646605,-73.9413782784613,57331
"66","10032","Orville & Wilbur Playground","West 156 Street & St. Nicholas Avenue","Yes","No","Manhattan",40.83168345,-73.9417847946974,57331
"67","10033","Highbridge Park (Recreation Center)","West 155 & Dyckman streets, Edgecombe & Amsterdam avenues","Yes","No","Manhattan",40.84606425,-73.9297058291312,53926
"68","10033","Highbridge Park (Quisqueya Playground)","West 180 Street & Amsterdam Avenue","Yes","No","Manhattan",40.84606425,-73.9297058291312,53926
"69","10033","Bennett Park","West 185 Street, Ft Washington Avenue","Yes","No","Manhattan",40.8527302,-73.9385173,53926
"70","10033","Highbridge Park (Wallenberg Playground)","West 188 Street & Amsterdam Avenue","Yes","Yes","Manhattan",40.84606425,-73.9297058291312,53926
"71","10034","Fort Washington Park (Lily Brown Playground)","West 162 Street, east of Riverside Drive","Yes","Yes","Manhattan",40.8532115,-73.9417566769514,38908
"72","10034","Inwood Hill Park (Payson Playground)","Payson & Dyckman streets","Yes","No","Manhattan",40.87227365,-73.9254269915026,38908
"73","10034","Inwood Hill Park (Tennis Courts)","Tennis courts & ballfields along Seaman Avenue from 207th Street to 214th Street","Yes","No","Manhattan",40.87227365,-73.9254269915026,38908
"74","10035","Wagner Pool","East 124 Street between 1 & 2 Avenues","No","No","Manhattan",40.80176505,-73.9328190449535,33969
"75","10035","Martin Luther King Houses","Lenox Avenue, West 113 to West 114 streets","Yes","No","Manhattan",40.8032357,-73.93471,33969
"76","10036","McCaffrey Playground","West 43 Street, 8 & 9 avenues","Yes","No","Manhattan",40.75896445,-73.9912426834348,24711
"77","10036","May Matthews Playground","West 45 Street between 9 & 10 avenues","Yes","No","Manhattan",40.761339,-73.9927764174242,24711
"78","10037","Hansborough Recreation Center","35 West 134 Street","Yes","No","Manhattan",40.81283485,-73.9393316565414,17416
"79","10037","Abe Lincoln","East 135 Street, between Madison & 5 avenues","Yes","No","Manhattan",40.81218975,-73.937156,17416
"80","10037","Col. Charles Young Playground","West 144 Street & Lenox Avenue","Yes","No","Manhattan",40.8195904,-73.9361885,17416
"81","10038","Alfred E. Smith Park","Catherine Slip, Madison & South streets","Yes","No","Manhattan",40.71097855,-73.9972036445177,20300
"82","10039","Jackie Robinson Park","West 149 Street & Bradhurst Avenue","Yes","No","Manhattan",40.8259965,-73.9415333334211,24527
"83","10039","Jackie Robinson Park (Playground One Fifty Two CLII)","West 152 Street & Bradhurst Avenue","Yes","No","Manhattan",40.8259965,-73.9415333334211,24527
"84","10039","Holcombe Rucker","West 155 Street, 8 Avenue to Harlem River Drive","Yes","No","Manhattan",40.8280552,-73.9346918,24527
"85","10039","Macombs Dam Park","East 161th Street & Ruppert Place","Yes","No","Bronx",40.82732775,-73.9285335654178,24527
"86","10040","Tecumseh Playground","West 77 Street & Amsterdam Avenue","Yes","No","Manhattan",40.7818185,-73.978571461579,41905
"87","10040","Frederick Douglass Playground","West 100-101 Street Amsterdam Avenue","Yes","No","Manhattan",40.7969444,-73.9677777,41905
"88","10040","Fort Tryon Park (Café)","One Margaret Corbin Drive","No","No","Manhattan",40.8608206,-73.9327696,41905
"89","10115","Riverside Park (Tennis Courts)","Riverside Drive & West 96th Street","Yes","No","Manhattan",40.8158821,-73.9623705,0
"90","10115","Fort Tryon Park (The Cloisters)","Riverside Drive to Broadway, West 192 to Dyckman streets","Yes","No","Manhattan",40.8158821,-73.9623705,0
"91","10115","Riverside Park (Boat Basin)","Riverside Drive to Hudson River, West 59th Street to Clair Place","No","No","Manhattan",40.8158821,-73.9623705,0
"92","10128","Stanley Isaacs","East 96-97 streets & FDR Drive","Yes","Yes","Manhattan",40.78171325,-73.9449887209983,60453
"93","10153","Broadway Malls","Broadway, Columbus Circle to West 110 Street","Yes","No","Manhattan",40.7723522,-73.9715901,0
"94","10280","Battery Park Comfort Station","Battery Place, State & Whitehall streets","Yes","No","Manhattan",40.7035905,-74.0144071,7853
"95","10280","Battery Park (Battery Gardens)","Battery Place, State & Whitehall streets","Yes","No","Manhattan",40.7035905,-74.0144071,7853
"96","10301","Lyons Pool","Pier 6, Victory Boulevard","No","Yes","Staten Island",40.63694485,-74.0734545132426,39706
"97","10301","Terrace Playground","Howard Avenue & Martha Street","Yes","Yes","Staten Island",40.61373045,-74.0984773231024,39706
"98","10301","Mahoney Playground","Beechwood & Cleveland avenues","Yes","No","Staten Island",40.6433333,-74.0858332,39706
"99","10302","Levy Playground","Jewett & Castleton avenues","Yes","No","Staten Island",40.63391285,-74.1289248774397,19088
"100","10303","Markham Playground","Willowbrook Parkway, Forest Avenue & Houston Street","Yes","Yes","Staten Island",40.6236111,-74.1458332,26337
"101","10305","Stapleton Playground","Tompkins Avenue & Broad Street","Yes","Yes","Staten Island",40.6120263,-74.0708689,41749
"102","10305","Potomac Playground","Tompkins Avenue & Halsey Street","Yes","No","Brooklyn",40.6120263,-74.0708689,41749
"103","10306","High Rock Park","Richmond Parkway & Moravian Cemetery at Rockland Avenue","Yes","No","Staten Island",40.58176295,-74.1225547818624,55909
"104","10306","High Rock Park (Education Building)","Richmond Parkway & Moravian Cemetery at Rockland Avenue","Yes","No","Staten Island",40.58176295,-74.1225547818624,55909
"105","10306","High Rock Park (Visitor Center)","Richmond Parkway & Moravian Cemetery at Rockland Avenue","Yes","No","Staten Island",40.58176295,-74.1225547818624,55909
"106","10306","Dugan Playground","Mill Road & Tysens Lane","Yes","No","Staten Island",40.5615308,-74.1108603,55909
"107","10306","Midland Playground","Lincoln & Mason avenues","Yes","No","Staten Island",40.5747222,-74.098611,55909
"108","10306","High Rock Park (McArthur Park)","Richmond Parkway & Moravian Cemetery at Rockland Avenue","Yes","Yes","Staten Island",40.58176295,-74.1225547818624,55909
"109","10308","Prescott Playground","Hylan Boulevard & Huguenot Avenue","Yes","No","Staten Island",40.5464584,-74.1414633,27357
"110","10309","Bloomingdale Park","Richmond Pkwy, Bloomingdale Rd., Lenevar Ave","No","Yes","Staten Island",40.532981,-74.2147164998331,32519
"111","10310","Corporal Thompson Park","Broadway, Henderson Avenue","No","No","Staten Island",40.6379157,-74.1184904,24962
"112","10312","Double Nickel Playground","Osborne Street and Preston Avenue","Yes","Yes","Staten Island",40.5374856,-74.1622243,59304
"113","10314","Blood Root Valley (Park House)","Rockland, Manor and Brielle avenues, Forest Hill Road","Yes","Yes","Staten Island",40.5877007,-74.1335386,85510
"114","10314","Corporal Thompson Park/West Brighton Pool","Broadway, Henderson Avenue","No","Yes","Staten Island",40.5795317,-74.1502007,85510
"115","10314","Blood Root Valley (Greenbelt Nature Center)","Rockland, Manor and Brielle avenues, Forest Hill Road","Yes","Yes","Staten Island",40.5877007,-74.1335386,85510
"116","10314","Willowbrook Park","Richmond Avenue To Victory Boulevard","Yes","No","Staten Island",40.6023263,-74.1584766,85510
"117","10314","Todt Hill Playground","Schmidts Lane & Manor Road","Yes","Yes","Staten Island",40.6094076,-74.1165739,85510
"118","10451","174th Street Playground","East 174 Street, Stratford Avenue, Bronx River Avenue","Yes","No","Bronx",40.8276779,-73.9260176,45713
"119","10453","Claremont Park Playground","E 170 Street & Teller Avenue","Yes","No","Bronx",40.856678,-73.9012832,78309
"120","10454","Millbrook Playground","East 135 Street, Cypress Avenue","Yes","Yes","Bronx",40.8043574,-73.9166011,37337
"121","10454","Willis Playground","East 139 Street, East 140 Street, Willis & Alexander avenues","Yes","No","Bronx",40.8108333,-73.923611,37337
"122","10455","Capt. Rivera Playground","East 156 Street, Forest Avenue","Yes","Yes","Bronx",40.8178344,-73.906772,39665
"123","10455","Clark Playground","3 Avenue, East 144 Street, East 146 Street","Yes","Yes","Bronx",40.8138889,-73.9213888,39665
"124","10456","Drew Playground","Fulton Avenue, East 169 Street","Yes","No","Bronx",40.8333333,-73.9033332,86547
"125","10456","Cauldwell Playground","Caldwell Avenue, East 163 Street, East 161 Street","Yes","No","Bronx",40.8227778,-73.9074999,86547
"126","10456","St. Mary's Park (Recreation Center)","450 St. Ann's Avenue","Yes","Yes","Bronx",40.81157845,-73.9124209971314,86547
"127","10456","St. Mary's Park West","St. Anns Avenue & East 147 Street","Yes","No","Bronx",40.8123102,-73.9140718,86547
"128","10456","Gouverneur Playground","3rd Avenue, St. Paul's Place, East 170 Street","Yes","No","Bronx",40.8352778,-73.9038888,86547
"129","10457","Claremont Park","Mount Eden Parkway & Morris Avenue","Yes","No","Bronx",40.8427457,-73.908643,70496
"130","10457","Belmont Playground","Crotona Avenue, East 181 Street","Yes","Yes","Bronx",40.8502778,-73.8877777,70496
"131","10457","Rose Hill Park","Webster Avenue, Harlem River, East Fordham Road","Yes","No","Bronx",40.8444372,-73.9026954,70496
"132","10457","Richman (Echo) Park Playground","East 178 Street & Ryer Avenue, Upper Level","Yes","Yes","Bronx",40.8457333,-73.8893856,70496
"133","10457","Crotona Park (Pool House)","173rd Street and Fulton Avenue","Yes","Yes","Bronx",40.8406948,-73.8982441,70496
"134","10457","Tremont Park Playground","Corner of East 175 Street & Arthur Avenue","Yes","No","Bronx",40.8428103,-73.891706,70496
"135","10457","Crotona Park (Martin Van Buren Playground)","Crotona East & Claremont Parkway","Yes","No","Bronx",40.8389019,-73.8938644115504,70496
"136","10458","Bronx Park (Olinville Playground)","East 219 Street & Bronx River Parkway","Yes","No","Bronx",40.85862575,-73.8759260447257,79492
"137","10458","Bronx Park (French Charley's Playground)","East 204 Street & W/S Bronx Park","Yes","No","Bronx",40.8740125,-73.8833881,79492
"138","10459","Horseshoe Playground","Hall Place, Rogers Place, East 165 Street","Yes","No","Bronx",40.8240128,-73.8976774,47308
"139","10460","Vidalia Park","Vyse & Daly avenues between West 179-180 streets","No","Yes","Bronx",40.8437147,-73.8812806847596,57311
"140","10460","Owen Dolen Recreation Center","Westchester Avenue, Lane Avenue, East Tremont Avenue","Yes","No","Bronx",40.8370495,-73.8654295,57311
"141","10460","People's Park Playground","Brook Avenue, East 141 Street","Yes","No","Bronx",40.8370495,-73.8654295,57311
"142","10460","Bronx Park (Waring Playground)","Bronx Park East between Waring Avenure and Thwaites Place","Yes","No","Bronx",40.8370495,-73.8654295,57311
"143","10460","Seton Park Playground","West 235 Street & Douglas Avenue","No","No","Bronx",40.8370495,-73.8654295,57311
"144","10460","Bronx Park (Brady Playground)","Bronx Park East between Bronxdale Avenue and Unionport Road","Yes","No","Bronx",40.8370495,-73.8654295,57311
"145","10460","Mapes Pool","East 180 Street, Mapes & Prospect avenues","Yes","No","Bronx",40.8370495,-73.8654295,57311
"146","10460","Crotona Park Environmental Center","Crotona Park North, Crotona Park South, Crotona Park East, Fulton Avenue","Yes","No","Bronx",40.8370495,-73.8654295,57311
"147","10460","Ciccarone Park Playground","Arthur Avenue, East 188 Street","Yes","No","Bronx",40.8370495,-73.8654295,57311
"148","10461","Loreto Park Playground","Morris Park Avenue, Haight Avenue, Tomlinson Avenue, Van Nest Avenue","Yes","No","Bronx",40.8522006,-73.8507279,50502
"149","10462","Bronx Park (Ben Abrams Playground)","Lydig Avenue & Bronx Park East","Yes","No","Bronx",40.8543818,-73.8610494,75784
"150","10463","Bailey Playground","Bailey Avenue, Weast 233-West 238 streets","Yes","No","Bronx",40.8811111,-73.9008332,67970
"151","10463","Marble Hill Playground","Marble Hill Avenue, West 230 Street, West 228 Street","No","No","Bronx",40.8778917,-73.9079697,67970
"152","10463","Van Cortlandt Park (Classic Playground)","Van Cortlandt Park South and Gouverneur Avenue","Yes","No","Bronx",40.8849265,-73.8907719,67970
"153","10466","227 Street Playground","Bronx Boulevard between East 226 and East 228 streets","Yes","Yes","Bronx",40.8897285,-73.863865,67813
"154","10466","Seton Park","West 135 Street, Independence Avenue, West 232 Street","Yes","No","Bronx",40.8868779,-73.8377239873487,67813
"155","10466","Rienzi Playground","East 226 Street, Barnes Avenue, East 225 Street","Yes","No","Bronx",40.8875,-73.858611,67813
"156","10467","Agnes Haywood Playground","East 215 Street, Barnes Avenue, East 216 Street","Yes","No","Bronx",40.8802778,-73.8616666,97060
"157","10467","Bronx River Parkway (Parque de los Ninos)","Bronx River Parkway, Bronx Park, Westchester/NYC City Line.","Yes","Yes","Bronx",40.864696,-73.871816,97060
"158","10467","Magenta Playground","Olinville Avenue, Rosewood Street","Yes","Yes","Bronx",40.8803912,-73.8668996,97060
"159","10468","Fort Independence Playground","Stevenson Place, West 238 Street, Sedgwick Avenue","Yes","No","Bronx",40.8816434,-73.8961157,76103
"160","10469","Pelham Bay Park (Bruckner CS)","Bruckner Boulevard, Eastchester Bay, Hutchinson","Yes","No","Bronx",40.8524136,-73.8263227,66631
"161","10469","Pelham South Park Headquarters","Bruckner Boulevard, Eastchester Bay, Hutchinson","Yes","No","Bronx",40.8524136,-73.8263227,66631
"162","10469","Orchard Beach Pavilion","Bruckner Boulevard, Eastchester Bay, Hutchinson","No","No","Bronx",40.8524136,-73.8263227,66631
"163","10469","Pelham Bay Park (Hunter Island Picnic Area)","Bruckner Boulevard, Eastchester Bay, Hutchinson","Yes","Yes","Bronx",40.8524136,-73.8263227,66631
"164","10469","Stars & Stripes Playground","Baychester Avenue, Crawford Avenue","Yes","No","Bronx",40.8693862,-73.8330844,66631
"165","10469","Orchard Beach Pavilion","Bruckner Boulevard, Eastchester Bay, Hutchinson","Yes","Yes","Bronx",40.8524136,-73.8263227,66631
"166","10469","Mazzei Playground","Mace Avenue, Williamsbridge Road","Yes","No","Bronx",40.8629385,-73.8520399,66631
"167","10469","Cavanaugh Triangle (Angelo Campanero Playground)","East Gun Hill Road, Eastchest Road, & O'Neil Place","Yes","Yes","Bronx",40.868492,-73.842659,66631
"168","10469","Pelham Bay Park (Bruckner Boulevard and Wilkinson Avenue)","Bruckner Boulevard, Eastchester Bay, Hutchinson","Yes","No","Bronx",40.8524136,-73.8263227,66631
"169","10471","Van Cortlandt Park (UC Pool Men's Locker)","West 242nd Street & Broadway","Yes","No","Bronx",40.8895802,-73.8999318,22922
"170","10471","Van Cortlandt Park (Stables Area)","Broadway and West 254th Street","Yes","No","Bronx",40.9010541,-73.8969283,22922
"171","10471","Van Cortlandt Park (Nature Center)","West 239 Street & Van Cortlandt East","Yes","No","Bronx",40.8977465,-73.8828205,22922
"172","10471","Van Cortlandt Park (Pool Building)","West 242nd Street & Broadway","Yes","No","Bronx",40.8895802,-73.8999318,22922
"173","10471","Van Cortlandt Park (Woodlawn Playground)","West 239 Street & Van Cortlandt East","Yes","No","Bronx",40.8977465,-73.8828205,22922
"174","10472","Watson Gleason Playground","Gleason Avenue, Rosedale Avenue, Watson Avenue, Nobel Avenue","Yes","No","Bronx",40.8283333,-73.8691666,66358
"175","10473","Pelham Bay Park (Playground for All Children)","Bruckner Expressway & Buhre Avenue","Yes","Yes","Bronx",40.8252582,-73.8663659,58519
"176","10474","Julio Carballo Field","Lafayette Avenue, Manda Street","Yes","No","Bronx",40.8158333,-73.8891666,12281
"177","10474","Hunts Point Playground","Spofford Avenue, Hunts Point Avenue, Faile Street","Yes","No","Bronx",40.8144125,-73.8868227,12281
"178","10510","Dyckman House Museum","Broadway & West 204 Street","Yes","No","Manhattan",41.1115472,-73.8583806,9988
"179","10510","Clement Clark Moore Park","Broadway & 83 Street","Yes","No","Queens",41.1115472,-73.8583806,9988
"180","10510","Frank D. O'Connor Playground","Broadway & 78 Street","Yes","No","Queens",41.1115472,-73.8583806,9988
"181","10510","Fort Tryon Park (Anne Loftus Playground)","Broadway & Dyckman Street","Yes","Yes","Manhattan",41.1115472,-73.8583806,9988
"182","10532","Jackie Robinson Park (Recreation Center)","Bradhurst & Edgecombe avenues,West 145 to West 155 streets","Yes","Yes","Manhattan",41.0897353,-73.801493,4931
"183","10580","Holy Cow Playground (PS 179)","Peck Avenue & Harding Boulevard","No","No","Queens",40.9852219,-73.6771619,17208
"184","10580","Kissena Corridor East (Underhill Playground)","Peck Avenue & 188 Street","Yes","No","Queens",40.9852219,-73.6771619,17208
"185","10598","Underhill Playground","Underhill Avenue & Prospect Place","Yes","No","Brooklyn",41.2601064,-73.7968702,28647
"186","10707","Bronx Park (Rosewood Playground)","Bronx River Parkway & Rosewood Street","Yes","No","Bronx",40.9476645,-73.8345485,10097
"187","11001","Haggerty Park","202 Street & Jamaica Avenue","No","Yes","Queens",40.71307635,-73.7576773096989,26883
"188","11004","Castlewood Playground (PS 186)","Little Neck Parkway & 72 Avenue","Yes","No","Queens",40.7536177,-73.7227354,14016
"189","11010","Alley Park (PS 213)","67 Avenue & 230 Street","Yes","No","Queens",40.6524927,-73.7914213158161,23821
"190","11030","Playground 90/PS 148 Playground","Northern Boulevard & 90 Street","Yes","No","Queens",40.7887109,-73.7056104,17962
"191","11040","Gunn Park (PS 18)","Hillside Avenue, east of 235 Court","No","No","Queens",40.7325,-73.731111,40782
"192","11101","Dutch Kills Playground (PS 112)","Crescent-28 streets, 36 Avenue, 37 Avenue","Yes","No","Queens",40.7570039,-73.9332799125892,25484
"193","11101","Andrews Playground","49 Avenue, Vernon Boulevard, 5 Street","No","No","Queens",40.7434498,-73.9548102,25484
"194","11102","Hallets Cove Playground","Hallets Cove, Vernon Boulevard","Yes","No","Queens",40.7717904,-73.9343288,34133
"195","11103","Astoria Heights Playground","30 Road, 45 to 46 streets","Yes","No","Queens",40.76052705,-73.9116487856359,38780
"196","11105","Woodtree Playground","20 Avenue, 37 Street, 38 Street","Yes","No","Queens",40.7775265,-73.9023713646802,36688
"197","11106","Arrow Community Garden","35th Street, between 35th and 36th Avenue","Yes","No","Queens",40.7541667,-73.9277777,38875
"198","11201","Big Bush Park","61 Street, north and south of Brooklyn-Queens Expressway","Yes","No","Queens",40.6983224,-73.9829246,51128
"199","11201","Bridge Park 2","Bridge & Prospect streets","Yes","No","Brooklyn",40.7010818,-73.9860009421422,51128
"200","11203","Tilden Playground","Tilden Avenue, East 48 to East 49 streets","Yes","No","Brooklyn",40.6477778,-73.9313888,76174
"201","11203","Wingate Park","Brooklyn Avenue & Rutland Road","Yes","No","Brooklyn",40.6582,-73.9441999,76174
"202","11204","Gravesend Park","18 Avenue & 56 Street","Yes","No","Brooklyn",40.6235637,-73.984404404921,78134
"203","11205","Star Spangled Banner Playground","Franklin & Willoughby avenues","Yes","No","Brooklyn",40.69156575,-73.9578861931263,40366
"204","11205","Edmonds Playground","DeKalb Avenue, Adelphi Street","Yes","No","Brooklyn",40.6894444,-73.9716666,40366
"205","11205","Pratt Playground","Willoughby Avenue, Emerson Place","Yes","No","Brooklyn",40.69263795,-73.9624997956733,40366
"206","11205","Oracle Playground","Adelphi & Myrtle avenues","Yes","No","Brooklyn",40.6937186,-73.9714434,40366
"207","11206","Bushwick Playground & Pool","Flushing Avenue, Bushwick Avenue & Humboldt Street","No","No","Brooklyn",40.7018957,-73.9369936,81677
"208","11206","Com. John Barry Park & Playground (Athletic Area)","South of Flushing Avenue","No","No","Brooklyn",40.7018957,-73.9369936,81677
"209","11206","Bartlett Playground","Bartlett Street & Throop Avenue","Yes","No","Brooklyn",40.7008333,-73.946111,81677
"210","11206","Com. John Barry Park & Playground","South of Flushing Avenue","Yes","No","Brooklyn",40.7018957,-73.9369936,81677
"211","11206","Willoughby Playground","Tompkins & Willoughby avenues","Yes","No","Brooklyn",40.6944444,-73.9472221,81677
"212","11206","Com. John Barry Park & Playground","South of Flushing Avenue","No","No","Brooklyn",40.7018957,-73.9369936,81677
"213","11206","Sternberg Park","Montrose Avenue, Boerum, Lorimer, Leonard streets","Yes","Yes","Brooklyn",40.7063889,-73.9472221,81677
"214","11207","Cypress Hills Park","Blake & Euclid avenues","Yes","No","Brooklyn",40.6770477,-73.8912473,93386
"215","11207","Rudd Playground","Aberdeen Street & Bushwick Avenue","Yes","No","Brooklyn",40.6830556,-73.9055555,93386
"216","11207","Ethan Allen Playground","New Jersey Avenue & Vermont Street/Worthman","Yes","No","Brooklyn",40.6555556,-73.8872221,93386
"217","11207","Newport Playground","Newport Avenue & Osborn Street","Yes","No","Brooklyn",40.6611111,-73.9072221,93386
"218","11207","Linden Park","Stanley Avenue, Linden Boulevard","Yes","No","Brooklyn",40.6588889,-73.8872221,93386
"219","11208","Pink Playground","Stanley Avenue & Eldert Lane","Yes","No","Brooklyn",40.6666667,-73.8627777,94469
"220","11208","City Line Park","Atlantic & Fountain avenues","Yes","No","Brooklyn",40.67962895,-73.8755341651647,94469
"221","11209","Russell Pederson Playground","Colonial Road, 83 to 85 streets","Yes","No","Brooklyn",40.6263585,-74.0361699,68853
"222","11209","Greenwood Playground","Fort Hamilton Parkway, Greenwood, East 5 Street","Yes","No","Brooklyn",40.6094454,-74.0285434,68853
"223","11209","McKinley Park","Fort Hamilton Parkway, 73 to 78 streets, 7 Avenue","Yes","No","Brooklyn",40.6094454,-74.0285434,68853
"224","11209","John J. Carty Park","Fort Hamilton Parkway, 94-95 streets","Yes","No","Brooklyn",40.614814,-74.029402,68853
"225","11210","Paerdegat Park","Foster Avenue, East 40-41 streets","Yes","No","Brooklyn",40.63788815,-73.9371900474268,62008
"226","11211","Campiz Playground","Hope Street & Metropolitan Avenue","Yes","No","Brooklyn",40.71345835,-73.9543284327052,90117
"227","11211","Roebling Playground","Wilson & Lee avenues, Taylor Street","Yes","No","Brooklyn",40.706288,-73.9619436710008,90117
"228","11211","Lou Lodati Playground","Skillman Avenue & 43 Street","Yes","No","Queens",40.7161042,-73.9429514,90117
"229","11211","Rodney Playground South","Rodney, South 3 & South 4 streets","Yes","No","Brooklyn",40.7097413,-73.9559329,90117
"230","11211","Cooper Park","Sharon, Olive streets, Maspeth & Morgan avenues","Yes","No","Brooklyn",40.7153476,-73.9387012,90117
"231","11212","Kennedy King Playground","East 93 Street & Lenox Road","Yes","No","Brooklyn",40.6583333,-73.9222221,84500
"232","11212","Chester Playground","Chester Street, Sutter Avenue","Yes","No","Brooklyn",40.6688889,-73.9119443,84500
"233","11212","Marion-Hopkinson Playground","Hopkinson Avenue & Marion Street","Yes","No","Brooklyn",40.6692495,-73.9135787,84500
"234","11212","Betsy Head Playground","Livonia, Dumont, Hopkinson, Blake avenues, Strauss Street","Yes","No","Brooklyn",40.6627297,-73.9133697357981,84500
"235","11212","Betsy Head Playground (Administration Building)","Livonia, Dumont, Hopkinson, Blake avenues, Strauss Street","Yes","No","Brooklyn",40.6627297,-73.9133697357981,84500
"236","11213","William E. Kelly Memorial Park","Avenue S, East 14 & East 15 streets","Yes","No","Brooklyn",40.6781784,-73.9441579,63767
"237","11213","Breukelen Playground","Louisiana & Flatlands Avenue","Yes","No","Brooklyn",40.6781784,-73.9441579,63767
"238","11213","Brower Park (Museum)","Brooklyn, St. Mark's, Kingston avenues, Park Place","Yes","No","Brooklyn",40.6781784,-73.9441579,63767
"239","11213","Luna Park Playground","West 12 Street & Surf Avenue","Yes","No","Brooklyn",40.6781784,-73.9441579,63767
"240","11213","Col. David Marcus Memorial Playground","Ocean Parkway, Avenue P, East 3 Street","Yes","No","Brooklyn",40.6781784,-73.9441579,63767
"241","11213","Marc's & Jason's Playground","Sterling Street & Empire Boulevard","Yes","No","Brooklyn",40.6781784,-73.9441579,63767
"242","11213","West 8nd Street CS","W 8 St.","No","No","Brooklyn",40.6781784,-73.9441579,63767
"243","11213","West 2nd Street Comfort Station","W. 2nd Street","No","No","Brooklyn",40.6781784,-73.9441579,63767
"244","11213","Brower Park","Brooklyn, St. Mark's, Kingston avenues, Park Place","Yes","No","Brooklyn",40.6781784,-73.9441579,63767
"245","11213","PS 1 Playground","46 & 47 streets, 3 Avenue","Yes","No","Brooklyn",40.6781784,-73.9441579,63767
"246","11213","Paul W. Kolbert Park/Rachel Haber Cohen Playground","Avenue L, East 17 to East 18 streets","Yes","No","Brooklyn",40.6781784,-73.9441579,63767
"247","11214","Garibaldi Playground","82 to 83 Street at 18 Avenue","Yes","No","Brooklyn",40.6090201,-74.0001547794441,88630
"248","11214","John Paul Jones Park","Shore Parkway, Fort Hamilton Parkway, 101 Street","Yes","No","Brooklyn",40.6022659,-74.012203,88630
"249","11214","Seth Low Playground","Avenue P, Bay Parkway, West 12 Street","Yes","No","Brooklyn",40.6083711,-73.9862530806374,88630
"250","11215","Prospect Park (Middle Long Meadow)","Picnic House","Yes","Yes","Brooklyn",40.661776,-73.97109829877,63488
"251","11215","Slope Park","6 Avenue Bet 18 & 19 Sts","Yes","No","Brooklyn",40.6612851,-73.9895536,63488
"252","11216","PFC Thomas Norton Memorial Playground","Nostrand Avenue & Marine Parkway","Yes","No","Brooklyn",40.67838,-73.94822,54316
"253","11217","Greene Playground","Greene & Washington avenues","Yes","No","Brooklyn",40.68030295,-73.9853484897914,35881
"254","11217","Gowanus Playground","Wyckoff Street between Bond & Hoyt streets","Yes","No","Brooklyn",40.6847463,-73.9882083,35881
"255","11217","Park Slope Playground","Berkeley Street & Lincoln Place","Yes","No","Brooklyn",40.67688985,-73.9785979668468,35881
"256","11219","Rappaport Playground","52-53 streets, Fort Hamilton Parkway","Yes","No","Brooklyn",40.6364526,-74.0005217,92221
"257","11220","Sunset Park (Recreation Center)","41 to 44 streets, 5 to 7 avenues","Yes","No","Brooklyn",40.644337,-74.0075319,99598
"258","11220","Sunset Park","41 to 44 streets, 5 to 7 avenues","Yes","No","Brooklyn",40.644337,-74.0075319,99598
"259","11221","Underwood Park","Lafayette & Waverly avenues","Yes","Yes","Brooklyn",40.68858435,-73.9664304988664,78895
"260","11221","Police Officer Reinaldo Salgado Playground","Madison Street & Patchen Avenue","Yes","No","Brooklyn",40.68799145,-73.9256226415349,78895
"261","11221","Hattie Carthan Playground","East of Marcy Street","Yes","No","Brooklyn",40.68558165,-73.9460975023821,78895
"262","11222","Monsignor Mcgolrick Park","Driggs to Nassau avenues, Russell to Monitor streets","Yes","No","Brooklyn",40.724445,-73.9433623303853,36934
"263","11222","Noonan Playground","Greenpoint & 47 avenues, 43 Street","Yes","No","Queens",40.7245448,-73.9418603,36934
"264","11223","Coney Island Beach","Stillwell Avenue","Yes","Yes","Brooklyn",40.5905519,-73.9840847,78731
"265","11224","Coney Island","W 27 ST.","No","Yes","Brooklyn",40.575789,-73.9851449,47621
"266","11224","Coney Island Beach","W 22 ST.","No","Yes","Brooklyn",40.57293285,-73.9745374693009,47621
"267","11224","Bensonhurst Park","Gravesend Bay, 21 & Cropsey avenues, Bay Parkway","Yes","No","Brooklyn",40.59750815,-74.0005503321721,47621
"268","11224","Coney Island","W 33 St.","No","Yes","Brooklyn",40.575789,-73.9851449,47621
"269","11224","Surf Playground","West 27 Street & Surf Avenue","Yes","No","Brooklyn",40.5732096,-73.9929283,47621
"270","11224","Coney Island Beach","West 16th Street","No","Yes","Brooklyn",40.57293285,-73.9745374693009,47621
"271","11224","Coney Island","Brighton 2nd","No","Yes","Brooklyn",40.575789,-73.9851449,47621
"272","11225","Jackie Robinson Playground","Sullivan Place & Franklin Avenue, Montgomery Street","Yes","No","Brooklyn",40.6643685,-73.9560187,56829
"273","11226","Nostrand Playground","Nostrand & Foster avenues","Yes","No","Brooklyn",40.6414184,-73.9485722,101572
"274","11226","Parkside Playground","Parkside, Bedford & Rogers avenues","Yes","No","Brooklyn",40.6563889,-73.9541666,101572
"275","11226","Albemarle Park","Albermarle Road & Dahill Road","Yes","Yes","Brooklyn",40.6468305,-73.9643242,101572
"276","11226","Bedford Playground","Bedford Avenue & South 9 Street, Division Avenue","Yes","No","Brooklyn",40.6536822,-73.9561495,101572
"277","11229","Herman Dolgon Playground","Avenue V & Nostrand Avenue","Yes","No","Brooklyn",40.5972985,-73.9505267,80018
"278","11229","Galapo Playground","Bedford Avenue, Gravesend Neck Road","Yes","No","Brooklyn",40.6081026,-73.9481894,80018
"279","11229","Mellett Playground","Avenue V between East 13 & East 14 streets","Yes","No","Brooklyn",40.5969444,-73.9574999,80018
"280","11230","Digilio Playground","McDonald Avenue & Avenue F","Yes","No","Brooklyn",40.6235909,-73.9758061,86408
"281","11231","Carroll Park","Court & Smith Streets","Yes","Yes","Brooklyn",40.6812204,-73.9957215502988,33336
"282","11231","Red Hook Park (Coffey Park Playground)","King, Richards, & Dwight Streets","Yes","No","Brooklyn",40.67150625,-74.0048622782748,33336
"283","11231","Dimattina Playground","Hicks & Rapelye streets","Yes","No","Brooklyn",40.6798459,-74.0027560097147,33336
"284","11233","Maurice A. Fitzgerald Playground","Atlantic Avenue & 106 Street","Yes","No","Queens",40.6762581,-73.9082993,67053
"285","11233","Sperandeo Brothers Playground","Atlantic Avenue & Elton Street","Yes","No","Brooklyn",40.6762581,-73.9082993,67053
"286","11233","Ocean Hill Playground","Bergen Street, Rockaway Avenue, Dean Street","Yes","No","Brooklyn",40.67437265,-73.9121811632894,67053
"287","11233","St. Andrew's Playground","Atlantic Avenue & Herkimer Street","Yes","No","Brooklyn",40.6762581,-73.9082993,67053
"288","11234","Glenwood Playground","Ralph Avenue & Farragut Road","Yes","Yes","Brooklyn",40.634696,-73.9188247,87757
"289","11234","Harry Maze Memorial Park","Avenue D between East 56 & East 57 Street","Yes","No","Brooklyn",40.6433333,-73.9233332,87757
"290","11234","Brevoort Playground","Ralph Avenue & Chauncy Street","Yes","No","Brooklyn",40.634696,-73.9188247,87757
"291","11234","Fox Playground","Avenue H, East 54 to E 55 streets","Yes","Yes","Brooklyn",40.6322222,-73.9238888,87757
"292","11234","Comm. Eugene S. Sarsfield Playground","East 38 Street & Ryder Street, Avenue M","Yes","No","Brooklyn",40.6202258,-73.9376354,87757
"293","11234","Lindower Park","Mill & Strickland avenues, 60 Street","Yes","No","Brooklyn",40.6123815,-73.9115803353748,87757
"294","11234","Carver Playground","Ralph Avenue & Sumpter Street","No","No","Brooklyn",40.634696,-73.9188247,87757
"295","11234","Marine Park Nature Center","East 33rd Street and Avenue U","No","Yes","Brooklyn",40.605043,-73.9299035,87757
"296","11235","Bill Brown Memorial Playground","Bedford Avenue, Avenue X to Avenue Y, E 24 Street","Yes","No","Brooklyn",40.59255745,-73.9457479956403,79132
"297","11235","Century Playground","Brighton Beach Avenue & West 2 Street","Yes","No","Brooklyn",40.5775615,-73.961412,79132
"298","11236","Bayview Playground","Seaview Avenue & East 99 Street","Yes","No","Brooklyn",40.635361,-73.8874068,93877
"299","11236","100% Playground","Glenwood Road, East 100 & East 101 streets","Yes","No","Brooklyn",40.6465901,-73.8990554,93877
"300","11237","Tiger Playground","Evergreen Avenue & Eldert Street","Yes","Yes","Brooklyn",40.68825415,-73.9109867908812,49896
"301","11237","Fermi Playground","Troutman Street & Central Avenue","Yes","No","Brooklyn",40.704825,-73.924586,49896
"302","11238","Albert J. Parham Playground","Adelphi Street, Clermont, DeKalb & Willoughby avenues","Yes","Yes","Brooklyn",40.6902296,-73.9710651,49262
"303","11238","Stroud Playground","Classon Avenue & Sterling Place","Yes","No","Brooklyn",40.6844907,-73.9591228,49262
"304","11354","Weeping Beech Park","37 Avenue & Bowne Street","Yes","No","Queens",40.763414,-73.824469,54878
"305","11354","Bushwick Playground & Pool","Flushing & Bushwick Avenue between Garden & Beaver","Yes","No","Brooklyn",40.7674987,-73.833079,54878
"306","11354","Hart Playground","37 Avenue, west of 69 Street","Yes","No","Queens",40.7738889,-73.8194443,54878
"307","11355","Kissena Park (Tennis Courts)","Rose & Oak avenues","Yes","No","Queens",40.7481027,-73.809911577103,85871
"308","11355","Captain Mario Fajardo Park","Kissena Boulevard & Booth Memorial Avenue","Yes","No","Queens",40.7413696,-73.8148124,85871
"309","11355","Maple Playground","Kissena Boulevard & Maple Avenue","No","Yes","Queens",40.7413696,-73.8148124,85871
"310","11355","Kissena Park","Oak Avenue, 104th Street, & Kissena Lake Area","Yes","No","Queens",40.74604975,-73.8087549286525,85871
"311","11355","Bowne Playground","Union Street and Sanford Avenue","Yes","No","Queens",40.7576513,-73.8251902,85871
"312","11355","Murray Playground","21 Street, 45 Avenue, 11 Street, 45 Road","No","No","Queens",40.7616667,-73.8119443,85871
"313","11356","Frank Golden Park","132 to 138 streets, 14 Road","Yes","No","Queens",40.78493505,-73.8344713595974,23438
"314","11356","College Point Park","130th Street & 23rd Avenue","Yes","No","Queens",40.7856383,-73.8463348058316,23438
"315","11357","Clintonville Playground (JHS 194)","Clintonville Street, 17 Road & 17 Avenue","Yes","No","Queens",40.7833333,-73.8080555,39150
"316","11357","Flushing Meadows Corona Park (Lawrence Playground)","College Point Boulevard and Lawrence Street","Yes","No","Queens",40.7903854,-73.8293995,39150
"317","11357","Francis Lewis Playground","3 Avenue and Bronx Whitestone Bridge","Yes","No","Queens",40.7955686,-73.8258891,39150
"318","11358","Aubondale Playground","170-171 streets, 33-35 avenues","Yes","No","Queens",40.7658583,-73.7942082,37546
"319","11359","Bayside Fields","204 Street & 29 Avenue, Clearview Expressway","Yes","Yes","Queens",40.8068898,-73.7942466,0
"320","11360","Bay Terrace Playground (PS 169)","23 Avenue & 212 Street","Yes","No","Queens",40.7825,-73.7777777,18884
"321","11360","John Golden Park","215 Place, south of 32 Avenue","No","Yes","Queens",40.77417655,-73.7681907535477,18884
"322","11361","Bowne Park","159 Street, 29 Avenue, 155 Street, 32 Avenue","Yes","No","Queens",40.77047275,-73.8073466559745,28606
"323","11361","Kennedy Playground","Corp. Kennedy Street & 33 Avenue","Yes","No","Queens",40.7699431,-73.7793645,28606
"324","11361","Marie Curie Park (JHS 158)","211 & Oceana streets, 46 Avenue","Yes","No","Queens",40.7571259,-73.7712682345943,28606
"325","11361","Flushing Fields (Leonardo Ingravallo Playground)","Bayside Avenue, 25 Avenue, 149 to 150 streets","Yes","No","Queens",40.7585569,-73.7654367,28606
"326","11362","Challenge Playground (PS 187) 251 Street Playground","251 Street & 63 Avenue","No","No","Queens",40.7566667,-73.7280555,17823
"327","11362","Louis Pasteur Park","248 Street & 51 Avenue","Yes","No","Queens",40.7619444,-73.7352777,17823
"328","11364","Alley Pond Park (Horatio Playground)","Horatio Parkway and 50 Avenue","Yes","No","Queens",40.758232,-73.7531418,34555
"329","11364","Tall Oak Playground","64 Avenue, 218 & 219 streets","Yes","No","Queens",40.7461111,-73.7583332,34555
"330","11365","Fresh Meadows Playground (PS 173)","67 Avenue & 173 Street","Yes","No","Queens",40.7341667,-73.796111,42252
"331","11365","Real Good Park (Lie Playground)","LIE, 99 Street & 62 Avenue","Yes","Yes","Queens",40.7393545,-73.7924011,42252
"332","11365","Emerald Playground (PS 200)","164 Street between Jewel & 71 avenues","Yes","No","Queens",40.7311111,-73.806111,42252
"333","11366","Farm Playground","73 Avenue, 195 Street & 196 Place","Yes","No","Queens",40.7352778,-73.7774999,13532
"334","11366","Frederick B. Judge Memorial Playground","111 Avenue, 134 & 135 streets, Lincoln Street","Yes","No","Queens",40.7282239,-73.7948516,13532
"335","11366","Painters Playground (PS 174)","Alderton Street from Dieterle to Elwell Crescents","Yes","No","Queens",40.7282239,-73.7948516,13532
"336","11366","K.L. Williams Playground (Tennis)","Liberty Avenue, 172-173 streets","Yes","No","Queens",40.7282239,-73.7948516,13532
"337","11366","Playground Seventy-Five (PS 154)","160 Street & 75 Avenue","Yes","No","Queens",40.7262841,-73.8080887,13532
"338","11366","Cabbell Park/Cambria Playground","121 Avenue & 220 Street","Yes","No","Queens",40.7282239,-73.7948516,13532
"339","11366","P.O. Nicholas Demutis Playground","102 Street & Liberty Avenue","Yes","No","Queens",40.7282239,-73.7948516,13532
"340","11367","Vleigh Place Playground","Vleigh Place & 141 Street","Yes","Yes","Queens",40.72314,-73.8204868,41047
"341","11367","Union Playground (PS 214)","Union Street & 31 Road","Yes","No","Queens",40.7181533,-73.8204022,41047
"342","11367","Ederle Comfort Station","Flushing Meadows Corona Park","No","Yes","Queens",40.7397136,-73.840785,41047
"343","11367","Vleigh Playground (PS 165)","70 Road to 71 Avenue","Yes","No","Queens",40.72988075,-73.8164696997329,41047
"344","11367","Flushing Meadows Corona Park (Albert H. Mauro Playground)","Park Drive East & 73 Terrace","Yes","No","Queens",40.7251204,-73.8277254,41047
"345","11368","Louis Armstrong Playground (PS 143)","37 Avenue between 112 & 113 streets","No","Yes","Queens",40.75488305,-73.8554631637909,109931
"346","11368","Flushing Meadows Corona Park (Playground for All Children)","111 Street and Corona Avenue","Yes","Yes","Queens",40.7406704,-73.8501755,109931
"347","11368","Alstyne Playground","Alystine Avenue & 102 Street","Yes","No","Queens",40.7433542,-73.8636818,109931
"348","11369","East Elmhurst Playground (PS 127)","25 Avenue & 98 Street","Yes","Yes","Queens",40.765611,-73.8709733237758,38615
"349","11369","Fisher Pool","32 Avenue, 99 Street","No","No","Queens",40.7589344,-73.8694086518065,38615
"350","11372","Gorman Playground","30 Avenue between 84 & 85 streets","Yes","No","Queens",40.76238795,-73.8842362690105,66636
"351","11373","Lost Battalion Hall","Queens Boulevard between 62 Avenue & 62 Road","Yes","No","Queens",40.7337976,-73.8721667,100820
"352","11373","Hoffman Park","Hoffman Drive west of Queens Boulevard","Yes","No","Queens",40.7337976,-73.8721667,100820
"353","11373","Crowley Playground","57 Avenue & 83 Street","Yes","No","Queens",40.72953655,-73.8796230182218,100820
"354","11377","Lawerence Virgilio Playground","39 Drive & 54 Street","Yes","Yes","Queens",40.7474497,-73.9108139,89830
"355","11377","Joseph F. Mafera Park","65 Place & Catalpa Avenue & 68 Avenue","Yes","No","Queens",40.7356231,-73.8999796,89830
"356","11379","Juniper Valley Park","Lutheran Avenue; North and South Juniper boulevards; and the pathway from 76th Street on north end to 75th Street on south end","Yes","Yes","Queens",40.7197275,-73.8815697392429,34821
"357","11379","Juniper Valley Park (North Playground Tennis)","62nd Avenue & 80th Street","Yes","No","Queens",40.7197275,-73.8815697392429,34821
"358","11385","Fort Greene Playground","Myrtle Avenue & St. Edwards Plaza","Yes","Yes","Brooklyn",40.699841,-73.908683,98592
"359","11411","East Springfield Playground","115 Road between 218 & 219 streets","Yes","No","Queens",40.6985062,-73.7401548,18556
"360","11412","Daniel M. O'Connell Playground","113 Avenue & 196 Street","Yes","No","Queens",40.7,-73.7580555,34882
"361","11414","Harold Schneiderman Playground (PS 232)","155 Avenue & 83 Street","Yes","Yes","Queens",40.6647222,-73.8502777,26148
"362","11415","Forest Park (Sobelsohn Playground, The Overlook)","Park Lane South and Abingdon Road","Yes","No","Queens",40.7096359,-73.834812,19341
"363","11415","Hoover Playground","Manton Street & 83 Avenue","Yes","No","Queens",40.7120075,-73.8216889,19341
"364","11416","Forest Park (Visitor Center, near the Carousel)","Woodhaven Boulevard and Forest Park Drive","Yes","No","Queens",40.700542,-73.8546456,24861
"365","11416","Linden Park","104 Street & 41 Avenue","Yes","No","Queens",40.689097,-73.840462,24861
"366","11416","London Planetree Playground","88 Street, Atlantic-95 avenues","Yes","No","Queens",40.6860837,-73.853117,24861
"367","11418","Woods Playground","Bergen Street & Utica Avenue","Yes","No","Brooklyn",40.7037377,-73.8459102587267,36256
"368","11418","Forest Park (Jackson Pond Playground)","108 Street and Park Lane South","Yes","No","Queens",40.7009165,-73.8421344,36256
"369","11418","Forest Park (Dry Harbour Playground)","80 Street & Myrtle Avenue","Yes","No","Queens",40.7034362,-73.8504128,36256
"370","11419","Ampere Playground (PS 64)","101 Avenue & 82 Street","Yes","No","Queens",40.687565,-73.834403,47211
"371","11421","Equity Park","90 Street, 88 & 89 avenues","Yes","No","Queens",40.6913889,-73.853611,39127
"372","11423","Peter's Field","183 Place & Henderson Avenue","Yes","No","Queens",40.70602225,-73.774836127693,29987
"373","11427","Cunningham Park (210th Street Playground)","210 Street & 73 Avenue","Yes","No","Queens",40.7351973,-73.7679361312199,23593
"374","11427","Bellaire Playground","89 Avenue, 207 & 208 streets","Yes","No","Queens",40.7213889,-73.7577777,23593
"375","11428","Breininger Park","Braddock Avenue & 240 Street","Yes","No","Queens",40.728006,-73.7341564,19168
"376","11429","Montbellier Park","Springfield Boulevard & 139 Avenue","No","No","Queens",40.7073529,-73.7390612,25105
"377","11429","Wayanda Park","Robard Lane & 217 Street","Yes","No","Queens",40.7101235,-73.7395005,25105
"378","11432","Capt. Tilly Park","Highland Avenue, Upland Parkway, Gothic Parkway, 85 Avenue","Yes","No","Queens",40.7124413,-73.7988958,60809
"379","11432","Electric Playground","164 Street, south of 65 Avenue","Yes","No","Queens",40.736031,-73.8053083,60809
"380","11432","Hollis Playground (JHS 192)","205 Street & Hollis Avenue","No","No","Queens",40.7188306,-73.7958167,60809
"381","11432","Joseph Austin Playground","Grand Central Parkway & 164 Place","Yes","No","Queens",40.7186362,-73.7954966,60809
"382","11433","Baisley Pond Park (157th Street Playground)","157 Street & 116 Avenue","Yes","No","Queens",40.67812865,-73.7855736167414,32687
"383","11433","Liberty Pool","173rd Street and 106th Avenue","No","Yes","Queens",40.7020409,-73.7831254,32687
"384","11433","St. Albans Park (174 Street Playground)","174 Street & 113 Avenue","Yes","No","Queens",40.6921815,-73.7806589663738,32687
"385","11433","Marconi Park","109 Avenue & 155 Street","Yes","No","Queens",40.6938959,-73.7954836769169,32687
"386","11434","Brownsville Playground","Linden Boulevard & Hegeman Avenue","Yes","No","Brooklyn",40.692642,-73.769417,59129
"387","11434","Loring Field","North Conduit & 149 Avenue","Yes","No","Queens",40.6669522,-73.7957487,59129
"388","11434","North Rochdale Playground (PS 30)","Baisley Boulevard & Bedell Street","Yes","No","Queens",40.6805681,-73.7745184,59129
"389","11434","Osborn Playground","Linden Boulevard & Osborn Street","Yes","No","Brooklyn",40.692642,-73.769417,59129
"390","11692","Baisley Pond Park","Rockaway Boulevard, 125th Avenue, & Baisley Boulevard South","Yes","No","Queens",40.592658,-73.7977928,18540
"391","11692","Rockaway Beach & Boardwalk (Beach 59th Street Playground)","Boardwalk & Beach 59-60 streets","Yes","No","Queens",40.5812388,-73.8221452117894,18540
"392","11693","Rockaway Beach 86 Comfort Station","Beach 86 Street","No","Yes","Queens",40.5890677,-73.8114645,11916
"393","11693","Bayside Playground (JHS 180)","Beach Channel Drive & Seaside Avenue","No","No","Queens",40.5897085,-73.8148117,11916
"394","11693","Rockaway Beach 97 Comfort Station","Beach 97 Street","No","Yes","Queens",40.584947,-73.8188057,11916
"395","11694","Rockaway Beach 106 Comfort Station","Beach 106 Street","No","Yes","Queens",40.582913,-73.8278554,20408
"396","11694","Seaside Playground (PS 225)","Rockaway Beach Boulevard, B109-B110 streets","Yes","No","Queens",40.5802778,-73.831111,20408
"397","11694","Hammel Playground","Rockaway Beach Blvd. Bet. Beach 84 St. And Beach 81 St.","No","Yes","Queens",40.5831381,-73.8226613,20408
"398","11694","Rockaway Beach 117th L/G","Beach 117 Street","No","Yes","Queens",40.5795009,-73.8381068,20408
"399","11710","Nautilus Playground","Merrick & Baisley boulevards","Yes","No","Queens",40.6628795,-73.551516,34496
"400","11779","Forest Park (Victory Field)","Long Island Railroad to Woodhaven Boulevard. to Myrtle Avenue to 96th Street","Yes","No","Queens",40.789142,-73.134961,38421
